name_contact,name,city,country,latitude,longitude,email,github,linkedin,summary
Stefano,Stefano Cosentino,Washington,USA,38.897615,-77.036563,stefano286@gmail.com,a,a,a
Helene,Helene Draux,London,UK,51.521168,0.114672,@gmail.com,a,a,a
Greg,Greg MacLennan,Boston,USA,41.366137,-71.055786,@gmail.com,a,a,a
James,James Wedell,Boston,USA,43.366137,-71.055786,@gmail.com,a,a,a
Amir,Amir Feizpour,Toronto,CANADA,43.66354,-79.37738,@gmail,a,a,a