name_contact,name,city,country,latitude,longitude,email,github,linkedin,summary
Stefano,Stefano Cosentino,Washington,USA,38.897615,-77.036563,stefano286@gmail.com,@joeDiHare,https://www.linkedin.com/in/stefano-cosentino-6a121a22/,"I have spend a huge chunk of my life in University in London and Cambridge (UK), now I am doing my second postdoc at UMD. I am a developer, a resercher, and a data hustler."
Helene,Helene Draux,London,UK,51.521168,0.114672,@gmail.com,,,
Greg,Greg MacLennan,Boston,USA,41.366137,-71.055786,@gmail.com,,,
James,James Wedell,Boston,USA,43.366137,-71.055786,@gmail.com,,,
Amir,Amir Feizpour,Toronto,CANADA,43.66354,-79.37738,@gmail,,https://www.linkedin.com/in/amirfz/,
Ashish,Ashish Verma,Toronto,CANADA,43.66354,-79.37738,@gmail,,https://www.linkedin.com/in/ashish-verma-27773313/,
